[{"rank": 1, "cluster_id": 0, "lat": 12.973680839772703, "lng": 77.58151694036239, "location": "Kamaraj Road, Sri Nagamma Devi Circle, Sivanchetti Gardens, Bengaluru, Karnataka. Pin-560042 (India)", "police_station": "Upparpet", "violation_count": 213036, "congestion_score": 69.2, "impact_level": "High", "enforcement_priority": "Urgent", "enforcement_score": 100.0, "radius_m": 5000.0}, {"rank": 2, "cluster_id": 24, "lat": 13.191206801748178, "lng": 77.6461972908949, "location": "Bengaluru Bellary Road, Sadahalli Gate Junction, Navarathna Agrahara, Bengaluru, Karnataka. Pin-5621", "police_station": "Chikkajala", "violation_count": 961, "congestion_score": 51.5, "impact_level": "High", "enforcement_priority": "Urgent", "enforcement_score": 100.0, "radius_m": 522.8767940477272}, {"rank": 3, "cluster_id": 6, "lat": 12.841833025933745, "lng": 77.64606880967128, "location": "Neeladri Road, Ajmera Annex, Karuna Nagar, Doddathogur, Bengaluru, Karnataka. Pin-560100 (India)", "police_station": "Electronic City", "violation_count": 2131, "congestion_score": 50.6, "impact_level": "High", "enforcement_priority": "Urgent", "enforcement_score": 100.0, "radius_m": 635.7566779411883}, {"rank": 4, "cluster_id": 35, "lat": 13.096043239536463, "lng": 77.59766979600666, "location": "Jakkur Main Road, Raitarasanthe, Nehru Nagar, Bengaluru, Karnataka. Pin-560064 (India)", "police_station": "Yelahanka", "violation_count": 1273, "congestion_score": 45.1, "impact_level": "Moderate", "enforcement_priority": "Urgent", "enforcement_score": 100.0, "radius_m": 653.6635114526543}, {"rank": 5, "cluster_id": 8, "lat": 13.185470005605705, "lng": 77.68050855491012, "location": "Unnamed Road, Begur Chikkanahalli, Bengaluru, Karnataka. Pin-562149 (India)", "police_station": "Chikkajala", "violation_count": 5118, "congestion_score": 41.5, "impact_level": "Moderate", "enforcement_priority": "Urgent", "enforcement_score": 97.2, "radius_m": 1598.8766777666985}, {"rank": 6, "cluster_id": 2, "lat": 13.001759815857193, "lng": 77.68377307512718, "location": "MBT Road, Devasandra Junction, KR Puram, Bengaluru, Karnataka. Pin-560036 (India)", "police_station": "K.R. Pura", "violation_count": 12633, "congestion_score": 40.1, "impact_level": "Moderate", "enforcement_priority": "Urgent", "enforcement_score": 95.9, "radius_m": 2753.139385810286}, {"rank": 7, "cluster_id": 99, "lat": 12.985459871698115, "lng": 77.74565409339623, "location": "Mims Gulmohar Road, Gulmohar, Whitefield, Bengaluru, Karnataka. Pin-560066 (India)", "police_station": "Whitefield", "violation_count": 106, "congestion_score": 43.8, "impact_level": "Moderate", "enforcement_priority": "Urgent", "enforcement_score": 93.0, "radius_m": 65.09354150921531}, {"rank": 8, "cluster_id": 67, "lat": 13.050494744400002, "lng": 77.52553118240002, "location": "Chikka Banavara RS Road, Prasad Enclave, Jalahalli, Bengaluru, Karnataka. Pin-560015 (India)", "police_station": "Jalahalli", "violation_count": 250, "congestion_score": 38.4, "impact_level": "Moderate", "enforcement_priority": "Urgent", "enforcement_score": 92.6, "radius_m": 161.94407159984968}, {"rank": 9, "cluster_id": 31, "lat": 12.978982911188861, "lng": 77.69526599405918, "location": "Outer Ring Road, Doddanekundi, Bengaluru, Karnataka. Pin-560037 (India)", "police_station": "Mahadevapura", "violation_count": 575, "congestion_score": 36.7, "impact_level": "Moderate", "enforcement_priority": "Urgent", "enforcement_score": 92.4, "radius_m": 531.7232729713428}, {"rank": 10, "cluster_id": 14, "lat": 12.926769957673342, "lng": 77.55071879303947, "location": "Dr Vishwesha Teertha Swamy Gala Road, Kathriguppe Circle, Banashankari Stage 3, Bengaluru, Karnataka", "police_station": "Banashankari", "violation_count": 351, "congestion_score": 44.9, "impact_level": "Moderate", "enforcement_priority": "Urgent", "enforcement_score": 92.1, "radius_m": 407.5744083547761}, {"rank": 11, "cluster_id": 64, "lat": 12.917187581069959, "lng": 77.59605774814814, "location": "East End A Main Road, Dr BR Ambedkar Circle, Jayanagar, Bengaluru, Karnataka. Pin-560069 (India)", "police_station": "Jayanagara", "violation_count": 243, "congestion_score": 47.9, "impact_level": "Moderate", "enforcement_priority": "Urgent", "enforcement_score": 91.8, "radius_m": 366.1245012346388}, {"rank": 12, "cluster_id": 135, "lat": 12.919249851931097, "lng": 77.54212892901704, "location": "Ittamadu Road, Thimmaraya Gowda Layout, Ittamadu, Banashankari Stage 3, Bengaluru, Karnataka. Pin-56", "police_station": "Banashankari", "violation_count": 27, "congestion_score": 54.3, "impact_level": "High", "enforcement_priority": "Urgent", "enforcement_score": 90.2, "radius_m": 65.01896644820704}, {"rank": 13, "cluster_id": 7, "lat": 12.934975759016393, "lng": 77.53651790614754, "location": "8th Main Road, Veerannana Guda, Veerabhadra Nagar, Banashankari Stage 3, Bengaluru, Karnataka. Pin-5", "police_station": "Banashankari", "violation_count": 244, "congestion_score": 39.9, "impact_level": "Moderate", "enforcement_priority": "Urgent", "enforcement_score": 89.8, "radius_m": 128.79147745991304}, {"rank": 14, "cluster_id": 1, "lat": 12.939914262232618, "lng": 77.69493107412339, "location": "New Horizon College Road, New Horizon College of Engineering, Kadubisanahalli, Bengaluru, Karnataka.", "police_station": "HAL Old Airport", "violation_count": 26703, "congestion_score": 31.6, "impact_level": "Moderate", "enforcement_priority": "Urgent", "enforcement_score": 88.2, "radius_m": 5000.0}, {"rank": 15, "cluster_id": 17, "lat": 12.917050117647063, "lng": 77.50018557647059, "location": "Global City Tech Park Road, Mylasandra Village, Mylasandara, Bengaluru, Karnataka. Pin-560059 (India", "police_station": "Kengeri", "violation_count": 51, "congestion_score": 39.1, "impact_level": "Moderate", "enforcement_priority": "Urgent", "enforcement_score": 88.2, "radius_m": 59.96415882409423}, {"rank": 16, "cluster_id": 65, "lat": 12.987122598519731, "lng": 77.51954725140992, "location": "Dr Rajkumar Puniya Bhoomi Road, Sumnahalli Junction, Kamakshipalya, Bengaluru, Karnataka. Pin-560091", "police_station": "Kamakshipalya", "violation_count": 241, "congestion_score": 43.9, "impact_level": "Moderate", "enforcement_priority": "Urgent", "enforcement_score": 87.8, "radius_m": 140.37076430986772}, {"rank": 17, "cluster_id": 132, "lat": 13.161279831034484, "lng": 77.62652933448274, "location": "Bengaluru Bellary Road, Vidyanagar Junction, Chikkajala, Bengaluru, Karnataka. Pin-562157 (India)", "police_station": "Chikkajala", "violation_count": 29, "congestion_score": 51.1, "impact_level": "High", "enforcement_priority": "Urgent", "enforcement_score": 87.4, "radius_m": 59.77756896704989}, {"rank": 18, "cluster_id": 125, "lat": 12.855131576302032, "lng": 77.66392578434504, "location": "Hosur Road, Nanjuda Reddy Layout, Phase 1, Electronic City, Bengaluru, Karnataka. Pin-560100 (India)", "police_station": "Electronic City", "violation_count": 120, "congestion_score": 47.3, "impact_level": "Moderate", "enforcement_priority": "Urgent", "enforcement_score": 87.2, "radius_m": 165.92716932798623}, {"rank": 19, "cluster_id": 25, "lat": 13.04583421885965, "lng": 77.75027977368423, "location": "1st Cross Road, Subhams Antique City, Konadasapura, Bengaluru, Karnataka. Pin-560049 (India)", "police_station": "K.R. Pura", "violation_count": 228, "congestion_score": 44.2, "impact_level": "Moderate", "enforcement_priority": "Urgent", "enforcement_score": 87.1, "radius_m": 235.61069342111728}, {"rank": 20, "cluster_id": 44, "lat": 13.057278428440368, "lng": 77.54693808440368, "location": "Soniya Gandhi Road, Gangamma Circle, Ramchandrapura, Bengaluru, Karnataka. Pin-560013 (India)", "police_station": "Jalahalli", "violation_count": 218, "congestion_score": 43.7, "impact_level": "Moderate", "enforcement_priority": "Urgent", "enforcement_score": 86.8, "radius_m": 233.95154311910105}, {"rank": 21, "cluster_id": 18, "lat": 12.987424983839778, "lng": 77.73424112002762, "location": "Whitefield Road, Sadaramangala Industrial Area, Whitefield, Bengaluru, Karnataka. Pin-560066 (India)", "police_station": "Mahadevapura", "violation_count": 724, "congestion_score": 30.1, "impact_level": "Moderate", "enforcement_priority": "Urgent", "enforcement_score": 86.5, "radius_m": 785.6057023475671}, {"rank": 22, "cluster_id": 94, "lat": 13.175530910526318, "lng": 77.63548555263158, "location": "Drive Thru Road, Chikkjala Junction, Chikkajala, Bengaluru, Karnataka. Pin-562157 (India)", "police_station": "Chikkajala", "violation_count": 19, "congestion_score": 45.3, "impact_level": "Moderate", "enforcement_priority": "Urgent", "enforcement_score": 85.6, "radius_m": 34.289068421283986}, {"rank": 23, "cluster_id": 61, "lat": 13.003463336486487, "lng": 77.72349642094593, "location": "Kodigehalli Main Road, Aryav Greenfields, Kadugodi, KR Puram, Bengaluru, Karnataka. Pin-560067 (Indi", "police_station": "K.R. Pura", "violation_count": 148, "congestion_score": 44.4, "impact_level": "Moderate", "enforcement_priority": "Urgent", "enforcement_score": 84.9, "radius_m": 50.9507804041931}, {"rank": 24, "cluster_id": 51, "lat": 13.121463761989796, "lng": 77.62375762831633, "location": "Bellahali Main Road, Niranthara Layout, Dwarka Nagar, Kattigenahalli, Bengaluru, Karnataka. Pin-5600", "police_station": "Yelahanka", "violation_count": 588, "congestion_score": 29.6, "impact_level": "Low", "enforcement_priority": "Urgent", "enforcement_score": 84.8, "radius_m": 1367.7289068881037}, {"rank": 25, "cluster_id": 13, "lat": 13.050949929704327, "lng": 77.58658410224972, "location": "Bellary Road, Vinayaka Nagar, Hebbal, Bengaluru, Karnataka. Pin-560024 (India)", "police_station": "Kodigehalli", "violation_count": 15352, "congestion_score": 28.1, "impact_level": "Low", "enforcement_priority": "Urgent", "enforcement_score": 84.4, "radius_m": 4478.209497180376}, {"rank": 26, "cluster_id": 21, "lat": 12.951284720481928, "lng": 77.60709605421688, "location": "Anepalya Main Road, Muthanna Garden, Nilsandra, Bengaluru, Karnataka. Pin-560030 (India)", "police_station": "Ashok Nagar", "violation_count": 166, "congestion_score": 40.7, "impact_level": "Moderate", "enforcement_priority": "Urgent", "enforcement_score": 83.8, "radius_m": 432.59439156514645}, {"rank": 27, "cluster_id": 87, "lat": 12.92522164117647, "lng": 77.49879471176472, "location": "Mysore Road, BDA Layout, Dubasipalya, Bengaluru, Karnataka. Pin-560059 (India)", "police_station": "Kengeri", "violation_count": 17, "congestion_score": 47.9, "impact_level": "Moderate", "enforcement_priority": "Urgent", "enforcement_score": 83.6, "radius_m": 39.034129411749774}, {"rank": 28, "cluster_id": 32, "lat": 13.03429422829196, "lng": 77.62479054702958, "location": "5th Cross Road, Rajath Greens, Block 5 Stage 1, HBR Layout, Bengaluru, Karnataka. Pin-560043 (India)", "police_station": "K.G. Halli", "violation_count": 744, "congestion_score": 26.4, "impact_level": "Low", "enforcement_priority": "Urgent", "enforcement_score": 82.8, "radius_m": 1247.365640407647}, {"rank": 29, "cluster_id": 9, "lat": 12.989556180069998, "lng": 77.5031629377842, "location": "Magadi Main Road, Hanumantharayan Palya, Sunkadakatte, Bengaluru, Karnataka. Pin-560091 (India)", "police_station": "Kamakshipalya", "violation_count": 483, "congestion_score": 31.4, "impact_level": "Moderate", "enforcement_priority": "Urgent", "enforcement_score": 82.7, "radius_m": 563.4362883432686}, {"rank": 30, "cluster_id": 50, "lat": 13.026376003846154, "lng": 77.72058755961538, "location": "MBT Road, Kodandaram, Medahalli, Bengaluru, Karnataka. Pin-560049 (India)", "police_station": "K.R. Pura", "violation_count": 52, "congestion_score": 45.6, "impact_level": "Moderate", "enforcement_priority": "Urgent", "enforcement_score": 82.6, "radius_m": 84.41592692306976}, {"rank": 31, "cluster_id": 27, "lat": 12.832367779105306, "lng": 77.68121381606198, "location": "Hosur Road, Salarpuria Sattva Alexandria Tech Park, Veerasandra Industrial Area, Bengaluru, Karnatak", "police_station": "Electronic City", "violation_count": 780, "congestion_score": 27.0, "impact_level": "Low", "enforcement_priority": "Urgent", "enforcement_score": 82.4, "radius_m": 1672.8564806889867}, {"rank": 32, "cluster_id": 74, "lat": 12.965418226864141, "lng": 77.74240801406111, "location": "Nallurahalli Road, SV Mayfair, Whitefield, Bengaluru, Karnataka. Pin-560066 (India)", "police_station": "Whitefield", "violation_count": 652, "congestion_score": 27.1, "impact_level": "Low", "enforcement_priority": "Urgent", "enforcement_score": 82.3, "radius_m": 2165.662518080234}, {"rank": 33, "cluster_id": 22, "lat": 12.90830626637698, "lng": 77.54736094294216, "location": "Subramanyapura Main Road, VVR Supreme Residency, Chikkalsandra, Bengaluru, Karnataka. Pin-560061 (In", "police_station": "K.S. Layout", "violation_count": 374, "congestion_score": 34.4, "impact_level": "Moderate", "enforcement_priority": "Urgent", "enforcement_score": 82.1, "radius_m": 784.9956500842836}, {"rank": 34, "cluster_id": 47, "lat": 13.03976283604581, "lng": 77.51732395587703, "location": "Jalahalli Cross Road, Jalahalli Cross Junction, Peenya, Bengaluru, Karnataka. Pin-560058 (India)", "police_station": "Peenya", "violation_count": 553, "congestion_score": 27.7, "impact_level": "Low", "enforcement_priority": "Urgent", "enforcement_score": 81.8, "radius_m": 927.520001085}, {"rank": 35, "cluster_id": 49, "lat": 12.881339503226547, "lng": 77.59672181689874, "location": "Shri Ramalingeshwara Cave Temple Road, Royal Meenakshi Mall, Hulimavu, Bengaluru, Karnataka. Pin-560", "police_station": "Hulimavu", "violation_count": 987, "congestion_score": 25.4, "impact_level": "Low", "enforcement_priority": "Urgent", "enforcement_score": 81.5, "radius_m": 1729.7015418531885}, {"rank": 36, "cluster_id": 4, "lat": 13.049221914079542, "lng": 77.57554746161662, "location": "Bhadrappa Flyover, Nagashetty Halli, RMV Stage 2, Bengaluru, Karnataka. Pin-560094 (India)", "police_station": "Kodigehalli", "violation_count": 1339, "congestion_score": 24.8, "impact_level": "Low", "enforcement_priority": "Urgent", "enforcement_score": 81.4, "radius_m": 2084.3675371707936}, {"rank": 37, "cluster_id": 41, "lat": 12.896648908045979, "lng": 77.72005069310345, "location": "Sarjapura Main Road, Kodathi Gate, Kodathi, Bengaluru, Karnataka. Pin-560035 (India)", "police_station": "Whitefield", "violation_count": 174, "congestion_score": 40.2, "impact_level": "Moderate", "enforcement_priority": "Urgent", "enforcement_score": 81.1, "radius_m": 76.00259310365409}, {"rank": 38, "cluster_id": 142, "lat": 13.085203484210528, "lng": 77.48646901578948, "location": "Maruti Mandir Road, MSPP Layout, Soladevanahalli, Bengaluru, Karnataka. Pin-560107 (India)", "police_station": "Chikkabanavara", "violation_count": 19, "congestion_score": 35.8, "impact_level": "Moderate", "enforcement_priority": "Urgent", "enforcement_score": 80.8, "radius_m": 12.263747368503886}, {"rank": 39, "cluster_id": 16, "lat": 12.888604770634917, "lng": 77.56267127644894, "location": "Konanakunte Main Road, Gopalan Jewels, Siddanna Layout, Bikaspura, Bengaluru, Karnataka. Pin-560062 ", "police_station": "Thalagattapura", "violation_count": 401, "congestion_score": 31.9, "impact_level": "Moderate", "enforcement_priority": "Urgent", "enforcement_score": 80.7, "radius_m": 554.104159524222}, {"rank": 40, "cluster_id": 88, "lat": 12.883556637275948, "lng": 77.75235374470374, "location": "Varthur Main Road, Dommansandra Circle, Dommasandra Anekal Taluka, Bengaluru, Karnataka. Pin-562125 ", "police_station": "No Police Station", "violation_count": 52, "congestion_score": 43.2, "impact_level": "Moderate", "enforcement_priority": "Urgent", "enforcement_score": 80.4, "radius_m": 104.74929981768355}, {"rank": 41, "cluster_id": 72, "lat": 13.047264864814814, "lng": 77.62832221790124, "location": "Thanisandra Main Road, Aswath Nagar Circle, Thanisandra, Bengaluru, Karnataka. Pin-560077 (India)", "police_station": "Hennuru", "violation_count": 162, "congestion_score": 37.5, "impact_level": "Moderate", "enforcement_priority": "Urgent", "enforcement_score": 79.9, "radius_m": 479.84580555568357}, {"rank": 42, "cluster_id": 5, "lat": 13.047894199727683, "lng": 77.49992903836558, "location": "Mumbai Bengaluru Highway, Nagasandra, Bengaluru, Karnataka. Pin-560073 (India)", "police_station": "Chikkabanavara", "violation_count": 754, "congestion_score": 23.8, "impact_level": "Low", "enforcement_priority": "Urgent", "enforcement_score": 79.4, "radius_m": 1855.3662610744227}, {"rank": 43, "cluster_id": 54, "lat": 12.948161616666667, "lng": 77.55920059444445, "location": "Lakshmipura Main Road, Bhawani Nagar, Gavipuram, Bengaluru, Karnataka. Pin-560004 (India)", "police_station": "Basavanagudi", "violation_count": 18, "congestion_score": 42.2, "impact_level": "Moderate", "enforcement_priority": "Urgent", "enforcement_score": 79.3, "radius_m": 30.426949999998953}, {"rank": 44, "cluster_id": 133, "lat": 13.028918452380955, "lng": 77.66400555714284, "location": "Horamavu Main Road, Jayanthi Nagar Circle, Horamavu, Bengaluru, Karnataka. Pin-560113 (India)", "police_station": "Hennuru", "violation_count": 21, "congestion_score": 43.4, "impact_level": "Moderate", "enforcement_priority": "Urgent", "enforcement_score": 79.2, "radius_m": 79.5223571412862}, {"rank": 45, "cluster_id": 143, "lat": 12.850803523140495, "lng": 77.65747107272729, "location": "Road Number 1, Salarpuria Infozone, Phase 1, Electronic City, Bengaluru, Karnataka. Pin-560100 (Indi", "police_station": "Electronic City", "violation_count": 121, "congestion_score": 31.0, "impact_level": "Moderate", "enforcement_priority": "Urgent", "enforcement_score": 78.6, "radius_m": 330.0055685949168}, {"rank": 46, "cluster_id": 62, "lat": 13.160774227777777, "lng": 77.59561080555555, "location": "Telecom Layout Road, Phase 2A, After The Rain, Bettahalasur, Bengaluru, Karnataka. Pin-562157 (India", "police_station": "Chikkajala", "violation_count": 18, "congestion_score": 42.7, "impact_level": "Moderate", "enforcement_priority": "Urgent", "enforcement_score": 78.5, "radius_m": 71.02581666674723}, {"rank": 47, "cluster_id": 36, "lat": 13.007600957957957, "lng": 77.58051399009008, "location": "3rd Main Road, Bashyam Circle, Sadashiva Nagar, Bengaluru, Karnataka. Pin-560080 (India)", "police_station": "Sadashivanagar", "violation_count": 333, "congestion_score": 30.2, "impact_level": "Moderate", "enforcement_priority": "Urgent", "enforcement_score": 77.5, "radius_m": 710.1493666668368}, {"rank": 48, "cluster_id": 122, "lat": 12.876004212068967, "lng": 77.61662020517241, "location": "Westend Avenue, Akshaya Nagar, Nyanappanahalli, Devarachikannahalli, Bengaluru, Karnataka. Pin-56006", "police_station": "Hulimavu", "violation_count": 58, "congestion_score": 39.7, "impact_level": "Moderate", "enforcement_priority": "Urgent", "enforcement_score": 76.9, "radius_m": 176.09173965534097}, {"rank": 49, "cluster_id": 139, "lat": 12.909757741935485, "lng": 77.51337037741935, "location": "Sri Sri Sri Tiruchi Mahaswamiji Road, Subhash Chandrabose Nagar, BEML Layout Stage 5, Rajarajeshwari", "police_station": "Kengeri", "violation_count": 31, "congestion_score": 39.1, "impact_level": "Moderate", "enforcement_priority": "Urgent", "enforcement_score": 76.7, "radius_m": 31.495354838844136}, {"rank": 50, "cluster_id": 140, "lat": 13.014130087096774, "lng": 77.49209849838711, "location": "Thigalarapalya Main Road, Stage 2, Peenya, Bengaluru, Karnataka. Pin-560058 (India)", "police_station": "Kamakshipalya", "violation_count": 62, "congestion_score": 27.7, "impact_level": "Low", "enforcement_priority": "Urgent", "enforcement_score": 76.3, "radius_m": 293.2668629046731}, {"rank": 51, "cluster_id": 104, "lat": 13.143383110647484, "lng": 77.61783318251798, "location": "Hosahalli Main Road, Hunasamaranahalli, Bengaluru, Karnataka. Pin-562157 (India)", "police_station": "Chikkajala", "violation_count": 139, "congestion_score": 36.0, "impact_level": "Moderate", "enforcement_priority": "Urgent", "enforcement_score": 76.0, "radius_m": 470.8620718706662}, {"rank": 52, "cluster_id": 107, "lat": 12.927318697142855, "lng": 77.59739144142857, "location": "East End A Main Road, SRK Garden, Jayanagar, Bengaluru, Karnataka. Pin-560011 (India)", "police_station": "Jayanagara", "violation_count": 70, "congestion_score": 38.0, "impact_level": "Moderate", "enforcement_priority": "Urgent", "enforcement_score": 76.0, "radius_m": 324.4193828569397}, {"rank": 53, "cluster_id": 129, "lat": 13.060786964102565, "lng": 77.46124334102562, "location": "Mumbai Bengaluru Highway, Nadaprabhu Kempegowda Circle, Madanaiyakanahalli, Bengaluru, Karnataka. Pi", "police_station": "No Police Station", "violation_count": 39, "congestion_score": 39.3, "impact_level": "Moderate", "enforcement_priority": "Urgent", "enforcement_score": 75.7, "radius_m": 50.597012821569365}, {"rank": 54, "cluster_id": 34, "lat": 13.02226595193762, "lng": 77.63937908918125, "location": "CMR Road, Jahnavi Layout, Kalyan Nagar, Bengaluru, Karnataka. Pin-560043 (India)", "police_station": "Banaswadi", "violation_count": 326, "congestion_score": 29.4, "impact_level": "Low", "enforcement_priority": "Urgent", "enforcement_score": 75.5, "radius_m": 712.198919594158}, {"rank": 55, "cluster_id": 84, "lat": 13.068550066666667, "lng": 77.53030765444444, "location": "Forest Region Road, Vymac Circle, Kammagondanahalli, Bengaluru, Karnataka. Pin-560015 (India)", "police_station": "Jalahalli", "violation_count": 90, "congestion_score": 34.6, "impact_level": "Moderate", "enforcement_priority": "High", "enforcement_score": 74.7, "radius_m": 262.30779999993104}, {"rank": 56, "cluster_id": 23, "lat": 13.045803084487355, "lng": 77.52241673777046, "location": "SM Road, Sri Ayyappa Nagar, Jalahalli West, Bengaluru, Karnataka. Pin-560015 (India)", "police_station": "Jalahalli", "violation_count": 64, "congestion_score": 35.9, "impact_level": "Moderate", "enforcement_priority": "High", "enforcement_score": 73.1, "radius_m": 281.59417809645504}, {"rank": 57, "cluster_id": 3, "lat": 12.873050883033455, "lng": 77.54016929496754, "location": "Konanakunte Main Road, Paramount Gardens, Jyotipuram, Thalaghattapura, Bengaluru, Karnataka. Pin-560", "police_station": "Thalagattapura", "violation_count": 417, "congestion_score": 23.7, "impact_level": "Low", "enforcement_priority": "High", "enforcement_score": 73.0, "radius_m": 1480.6271167134728}, {"rank": 58, "cluster_id": 56, "lat": 12.915406886111112, "lng": 77.61574693611111, "location": "31st Main Road, Someshwara Colony, BTM Layout Stage 2, Bengaluru, Karnataka. Pin-560076 (India)", "police_station": "Mico Layout", "violation_count": 36, "congestion_score": 35.9, "impact_level": "Moderate", "enforcement_priority": "High", "enforcement_score": 72.9, "radius_m": 169.53184166652414}, {"rank": 59, "cluster_id": 68, "lat": 13.050926824747474, "lng": 77.55270648131315, "location": "Rajatha Bhavana Road, Dr K Shivaramakarantha Circle, Jalahalli, Bengaluru, Karnataka. Pin-560013 (In", "police_station": "Jalahalli", "violation_count": 198, "congestion_score": 30.6, "impact_level": "Moderate", "enforcement_priority": "High", "enforcement_score": 72.7, "radius_m": 354.62554696966464}, {"rank": 60, "cluster_id": 19, "lat": 12.972725860185184, "lng": 77.509046329321, "location": "Kengeri Main Road, Papareddypalya Circle, Nagarbhavi Stage 2, Bengaluru, Karnataka. Pin-560072 (Indi", "police_station": "Jnanabharathi", "violation_count": 324, "congestion_score": 26.0, "impact_level": "Low", "enforcement_priority": "High", "enforcement_score": 72.6, "radius_m": 1025.2115194444987}, {"rank": 61, "cluster_id": 58, "lat": 13.099034148110828, "lng": 77.58342813198992, "location": "3rd A Cross Road, East Colony, Yelahanka, Bengaluru, Karnataka. Pin-560064 (India)", "police_station": "Yelahanka", "violation_count": 397, "congestion_score": 23.9, "impact_level": "Low", "enforcement_priority": "High", "enforcement_score": 72.5, "radius_m": 880.169219143454}, {"rank": 62, "cluster_id": 114, "lat": 12.8919736, "lng": 77.63202441153847, "location": "13th Main Road, Nandishwara Layout, Garvebhavi Palya, Bengaluru, Karnataka. Pin-560068 (India)", "police_station": "Hulimavu", "violation_count": 26, "congestion_score": 34.5, "impact_level": "Moderate", "enforcement_priority": "High", "enforcement_score": 72.4, "radius_m": 101.82029999992714}, {"rank": 63, "cluster_id": 90, "lat": 12.962153903773583, "lng": 77.61526084905661, "location": "ORC Road, Karnataka Police Quarters, Victoria Layout, Bengaluru, Karnataka. Pin-560047 (India)", "police_station": "Ashok Nagar", "violation_count": 53, "congestion_score": 33.3, "impact_level": "Moderate", "enforcement_priority": "High", "enforcement_score": 72.4, "radius_m": 453.5677811323282}, {"rank": 64, "cluster_id": 120, "lat": 12.892228190625, "lng": 77.57208904999999, "location": "Chunchaghatta Main Road, Kuvempu Circle, Konanakunte, Bengaluru, Karnataka. Pin-560062 (India)", "police_station": "Thalagattapura", "violation_count": 32, "congestion_score": 35.8, "impact_level": "Moderate", "enforcement_priority": "High", "enforcement_score": 72.1, "radius_m": 160.91565937498763}, {"rank": 65, "cluster_id": 128, "lat": 12.940924387037036, "lng": 77.54849264074073, "location": "Sri Kumaraswamy Temple Road, Muneshwara Block, Banashankari Stage 1, Bengaluru, Karnataka. Pin-56002", "police_station": "Banashankari", "violation_count": 54, "congestion_score": 34.6, "impact_level": "Moderate", "enforcement_priority": "High", "enforcement_score": 71.6, "radius_m": 362.26926111096526}, {"rank": 66, "cluster_id": 111, "lat": 12.915535541379311, "lng": 77.69870208965519, "location": "Gear School Road, AET Junction, Doddakannelli, Bengaluru, Karnataka. Pin-560035 (India)", "police_station": "Bellandur", "violation_count": 29, "congestion_score": 35.3, "impact_level": "Moderate", "enforcement_priority": "High", "enforcement_score": 71.5, "radius_m": 123.56060689639925}, {"rank": 67, "cluster_id": 89, "lat": 13.013022274390245, "lng": 77.6264171012195, "location": "Sri Vinayaka Temple Main Road, Sait Palya, Lingarajapuram, Bengaluru, Karnataka. Pin-560084 (India)", "police_station": "Banaswadi", "violation_count": 82, "congestion_score": 32.4, "impact_level": "Moderate", "enforcement_priority": "High", "enforcement_score": 71.1, "radius_m": 243.37575731715867}, {"rank": 68, "cluster_id": 39, "lat": 13.05431352907727, "lng": 77.50745474533441, "location": "Hesaraghatta Main Road, Defence Colony, Bagalagunte, Bengaluru, Karnataka. Pin-560073 (India)", "police_station": "Chikkabanavara", "violation_count": 206, "congestion_score": 28.8, "impact_level": "Low", "enforcement_priority": "High", "enforcement_score": 71.0, "radius_m": 708.0768724230104}, {"rank": 69, "cluster_id": 80, "lat": 12.921834847514953, "lng": 77.56123094351946, "location": "MK Puttalingaiah Main Road, BT Somanna Circle, Padmanabhanagar, Bengaluru, Karnataka. Pin-560070 (In", "police_station": "Banashankari", "violation_count": 53, "congestion_score": 34.1, "impact_level": "Moderate", "enforcement_priority": "High", "enforcement_score": 70.9, "radius_m": 474.6193008453048}, {"rank": 70, "cluster_id": 15, "lat": 13.047522585999998, "lng": 77.5455325475, "location": "Jalahalli Main Road, Sri Veera Madakari Nayaka Circle, Jalahalli, Bengaluru, Karnataka. Pin-560013 (", "police_station": "Jalahalli", "violation_count": 200, "congestion_score": 28.2, "impact_level": "Low", "enforcement_priority": "High", "enforcement_score": 70.4, "radius_m": 611.0010374997188}, {"rank": 71, "cluster_id": 116, "lat": 12.950108154838707, "lng": 77.6897336967742, "location": "Yemalur Road, Divyasree Technopolis, 77 Town Centre, Yemlur, Bengaluru, Karnataka. Pin-560037 (India", "police_station": "HAL Old Airport", "violation_count": 31, "congestion_score": 33.7, "impact_level": "Moderate", "enforcement_priority": "High", "enforcement_score": 70.2, "radius_m": 142.10721290357142}, {"rank": 72, "cluster_id": 55, "lat": 13.070482256666667, "lng": 77.63126534761905, "location": "Thanisandra Main Road, Ex Serviceman Layout, Hegde Nagar, Bengaluru, Karnataka. Pin-560077 (India)", "police_station": "Hennuru", "violation_count": 210, "congestion_score": 27.7, "impact_level": "Low", "enforcement_priority": "High", "enforcement_score": 70.1, "radius_m": 861.7340476193647}, {"rank": 73, "cluster_id": 134, "lat": 12.806362238095241, "lng": 77.69840978095237, "location": "Hosur Road, Bangaranna Khanavali, Bommasandra, Bengaluru, Karnataka. Pin-560099 (India)", "police_station": "Electronic City", "violation_count": 42, "congestion_score": 32.4, "impact_level": "Moderate", "enforcement_priority": "High", "enforcement_score": 69.8, "radius_m": 183.61197142817252}, {"rank": 74, "cluster_id": 98, "lat": 12.989001604861926, "lng": 77.68874434450139, "location": "Mahadevapura Flyover, Mahadevapura, Bengaluru, Karnataka. Pin-560048 (India)", "police_station": "Mahadevapura", "violation_count": 65, "congestion_score": 32.2, "impact_level": "Moderate", "enforcement_priority": "High", "enforcement_score": 69.7, "radius_m": 282.6831603262061}, {"rank": 75, "cluster_id": 131, "lat": 12.920503966666665, "lng": 77.7363625074074, "location": "Varthur Main Road, Sapthagiri Nirvana, Gunjur, Bengaluru, Karnataka. Pin-560087 (India)", "police_station": "Whitefield", "violation_count": 27, "congestion_score": 29.5, "impact_level": "Low", "enforcement_priority": "High", "enforcement_score": 69.6, "radius_m": 158.13799999982336}, {"rank": 76, "cluster_id": 52, "lat": 12.941029576307926, "lng": 77.74736830626453, "location": "Muthsandra Main Road, KSRTC Travel House Junction, Varthur Marattahalli, Bengaluru, Karnataka. Pin-5", "police_station": "Whitefield", "violation_count": 186, "congestion_score": 27.6, "impact_level": "Low", "enforcement_priority": "High", "enforcement_score": 69.0, "radius_m": 557.9840167281204}, {"rank": 77, "cluster_id": 29, "lat": 13.035396431132076, "lng": 77.7352972009434, "location": "MBT Road, Avalahalli South Taluka, Bengaluru, Karnataka. Pin-560049 (India)", "police_station": "K.R. Pura", "violation_count": 106, "congestion_score": 29.9, "impact_level": "Low", "enforcement_priority": "High", "enforcement_score": 68.9, "radius_m": 353.2600801899122}, {"rank": 78, "cluster_id": 93, "lat": 13.081696405819757, "lng": 77.54826110635493, "location": "Hesarghatta Road, Mohammad Sab Palya Circle, Vidyaranyapura, Bengaluru, Karnataka. Pin-560097 (India", "police_station": "Yelahanka", "violation_count": 53, "congestion_score": 31.5, "impact_level": "Moderate", "enforcement_priority": "High", "enforcement_score": 68.9, "radius_m": 198.2355459930165}, {"rank": 79, "cluster_id": 59, "lat": 13.018375681628878, "lng": 77.70766627983913, "location": "MBT Road, Zero Tolerance Junction, KR Puram, Bengaluru, Karnataka. Pin-560049 (India)", "police_station": "K.R. Pura", "violation_count": 84, "congestion_score": 30.7, "impact_level": "Moderate", "enforcement_priority": "High", "enforcement_score": 68.6, "radius_m": 359.2827608054918}, {"rank": 80, "cluster_id": 115, "lat": 13.054274614285713, "lng": 77.7629146247619, "location": "MBT Road, Brigade Golden Triangle, Sannatammanahalli, Bengaluru, Karnataka. Pin-560049 (India)", "police_station": "K.R. Pura", "violation_count": 105, "congestion_score": 29.6, "impact_level": "Low", "enforcement_priority": "High", "enforcement_score": 68.5, "radius_m": 295.3059857142364}, {"rank": 81, "cluster_id": 77, "lat": 12.938216772222223, "lng": 77.5926268148148, "location": "8th Main Road, NIMHANS, Bengaluru, Karnataka. Pin-560029 (India)", "police_station": "Wilson Garden", "violation_count": 108, "congestion_score": 27.8, "impact_level": "Low", "enforcement_priority": "High", "enforcement_score": 68.4, "radius_m": 343.96371666681347}, {"rank": 82, "cluster_id": 71, "lat": 13.150221320000002, "lng": 77.61925968, "location": "Bengaluru Bellary Road, Mahaveer Celesse, Hunasamaranahalli, Bengaluru, Karnataka. Pin-562157 (India", "police_station": "Chikkajala", "violation_count": 15, "congestion_score": 32.5, "impact_level": "Moderate", "enforcement_priority": "High", "enforcement_score": 68.1, "radius_m": 244.08012000015944}, {"rank": 83, "cluster_id": 73, "lat": 13.072321749999999, "lng": 77.60490693846154, "location": "KV Jairam Road, Kempegowda Circle, Jakkuru, Bengaluru, Karnataka. Pin-560064 (India)", "police_station": "Hebbala", "violation_count": 26, "congestion_score": 31.9, "impact_level": "Moderate", "enforcement_priority": "High", "enforcement_score": 67.9, "radius_m": 226.98073076938385}, {"rank": 84, "cluster_id": 78, "lat": 13.008323309523808, "lng": 77.48431117142857, "location": "Andrahalli Main Road, Andhrahalli, Bengaluru, Karnataka. Pin-560091 (India)", "police_station": "Kamakshipalya", "violation_count": 21, "congestion_score": 31.1, "impact_level": "Moderate", "enforcement_priority": "High", "enforcement_score": 67.9, "radius_m": 120.7558428573563}, {"rank": 85, "cluster_id": 82, "lat": 12.903179446078326, "lng": 77.64152167145994, "location": "27th Cross Road, Ramachandra Reddy Layout, Mangammanapalya, Bommanahalli, Bengaluru, Karnataka. Pin-", "police_station": "HSR Layout", "violation_count": 70, "congestion_score": 26.0, "impact_level": "Low", "enforcement_priority": "High", "enforcement_score": 67.9, "radius_m": 233.0760740944271}, {"rank": 86, "cluster_id": 60, "lat": 12.907726597180856, "lng": 77.53302121786982, "location": "4th Main Road, Subramanyapura, Bengaluru South City Corporation, Bengaluru, Bangalore South, Bengalu", "police_station": "K.S. Layout", "violation_count": 68, "congestion_score": 29.7, "impact_level": "Low", "enforcement_priority": "High", "enforcement_score": 67.4, "radius_m": 248.5182129249921}, {"rank": 87, "cluster_id": 33, "lat": 13.084094077678571, "lng": 77.63661758125, "location": "Munninarasimha Road, Prisha Orchids, Chokkanahalli, Bengaluru, Karnataka. Pin-560064 (India)", "police_station": "Hennuru", "violation_count": 112, "congestion_score": 27.9, "impact_level": "Low", "enforcement_priority": "High", "enforcement_score": 67.1, "radius_m": 629.006177678626}, {"rank": 88, "cluster_id": 45, "lat": 13.059374804232803, "lng": 77.6503791216931, "location": "Doddagubbi Road, Chikka Aneppa Layout, Narayanpura, Kothnur Narayanapura, Bengaluru, Karnataka. Pin-", "police_station": "Hennuru", "violation_count": 189, "congestion_score": 25.4, "impact_level": "Low", "enforcement_priority": "High", "enforcement_score": 66.9, "radius_m": 1278.4096698410963}, {"rank": 89, "cluster_id": 12, "lat": 13.007823177511053, "lng": 77.75837143418664, "location": "Whitefield Main Road, Sri Sathya Sai Gokulam, Sai Colony, Kadugodi, Bengaluru, Karnataka. Pin-560067", "police_station": "Mahadevapura", "violation_count": 277, "congestion_score": 22.4, "impact_level": "Low", "enforcement_priority": "High", "enforcement_score": 66.9, "radius_m": 1456.3335962731917}, {"rank": 90, "cluster_id": 26, "lat": 12.895385560468227, "lng": 77.56936045168204, "location": "Bikasipura Main Road, LMC Industrial Layout, Konanakunte, Bengaluru, Karnataka. Pin-560062 (India)", "police_station": "K.S. Layout", "violation_count": 96, "congestion_score": 27.6, "impact_level": "Low", "enforcement_priority": "High", "enforcement_score": 66.5, "radius_m": 496.34088802677036}, {"rank": 91, "cluster_id": 92, "lat": 13.026724197740114, "lng": 77.5193460694915, "location": "Rajgopal Nagar Main Road, SBM Circle, Peenya, Bengaluru, Karnataka. Pin-560058 (India)", "police_station": "Peenya", "violation_count": 59, "congestion_score": 28.3, "impact_level": "Low", "enforcement_priority": "High", "enforcement_score": 66.5, "radius_m": 366.7242401119353}, {"rank": 92, "cluster_id": 20, "lat": 12.912926747547854, "lng": 77.4820446337977, "location": "Kengeri Magadi Road, Police Quarters, Stage 1, Kengeri Satellite Town, Bengaluru, Karnataka. Pin-560", "police_station": "Kengeri", "violation_count": 139, "congestion_score": 26.4, "impact_level": "Low", "enforcement_priority": "High", "enforcement_score": 66.3, "radius_m": 525.025127195633}, {"rank": 93, "cluster_id": 91, "lat": 13.116474926530614, "lng": 77.57811597551022, "location": "Doddaballapur Main Road, Nagarjuna Meadows, Anantapura, Bengaluru, Karnataka. Pin-560064 (India)", "police_station": "Yelahanka", "violation_count": 49, "congestion_score": 27.5, "impact_level": "Low", "enforcement_priority": "High", "enforcement_score": 66.1, "radius_m": 239.94054489826766}, {"rank": 94, "cluster_id": 70, "lat": 12.899826913676097, "lng": 77.64872959040848, "location": "27th Cross Road, RR Residency, Hosapalya, HSR Layout, Bengaluru, Karnataka. Pin-560068 (India)", "police_station": "HSR Layout", "violation_count": 47, "congestion_score": 27.8, "impact_level": "Low", "enforcement_priority": "High", "enforcement_score": 66.0, "radius_m": 322.40908195315933}, {"rank": 95, "cluster_id": 57, "lat": 12.986341761977192, "lng": 77.47993754543307, "location": "Magadi Main Road, Byadrahalli, Bengaluru, Karnataka. Pin-560091 (India)", "police_station": "Kamakshipalya", "violation_count": 127, "congestion_score": 26.1, "impact_level": "Low", "enforcement_priority": "High", "enforcement_score": 65.7, "radius_m": 707.7401381892656}, {"rank": 96, "cluster_id": 117, "lat": 13.067850911904761, "lng": 77.58040701904763, "location": "4th Main Road, Sri Ammembal Subbarao Pai Nagara, Sahakara Nagar, Bengaluru, Karnataka. Pin-560097 (I", "police_station": "Kodigehalli", "violation_count": 42, "congestion_score": 28.2, "impact_level": "Low", "enforcement_priority": "High", "enforcement_score": 65.5, "radius_m": 263.40167857150476}, {"rank": 97, "cluster_id": 95, "lat": 13.19787573723404, "lng": 77.7047409712766, "location": "Cargo Road, Arisinakunte, Bengaluru, Karnataka. Pin-560300 (India)", "police_station": "Devanahalli Airport", "violation_count": 94, "congestion_score": 26.5, "impact_level": "Low", "enforcement_priority": "High", "enforcement_score": 65.4, "radius_m": 537.5509414883339}, {"rank": 98, "cluster_id": 79, "lat": 13.05504628157895, "lng": 77.5348996263158, "location": "Abbigere Main Road, Patel Shamanna Layout, Kammagondanahalli, Bengaluru, Karnataka. Pin-560015 (Indi", "police_station": "Jalahalli", "violation_count": 76, "congestion_score": 27.5, "impact_level": "Low", "enforcement_priority": "High", "enforcement_score": 65.4, "radius_m": 300.2903447365668}, {"rank": 99, "cluster_id": 40, "lat": 12.89004058022951, "lng": 77.66980640643347, "location": "Silver County Road, Choodasandra Circle, Kasavanahalli, Bengaluru, Karnataka. Pin-560035 (India)", "police_station": "Electronic City", "violation_count": 28, "congestion_score": 28.0, "impact_level": "Low", "enforcement_priority": "High", "enforcement_score": 65.1, "radius_m": 268.34445315543576}, {"rank": 100, "cluster_id": 97, "lat": 12.843111042105264, "lng": 77.68740289473683, "location": "Huskur Main Road, Inspira Tropical Garden, Gulimangala, Bengaluru, Karnataka. Pin-560099 (India)", "police_station": "Electronic City", "violation_count": 19, "congestion_score": 29.3, "impact_level": "Low", "enforcement_priority": "High", "enforcement_score": 65.0, "radius_m": 141.65352631572148}, {"rank": 101, "cluster_id": 85, "lat": 12.897693952062015, "lng": 77.65870928174097, "location": "Haralur Road, Birla Circle, Haralur, Bengaluru, Karnataka. Pin-560035 (India)", "police_station": "Bellandur", "violation_count": 143, "congestion_score": 24.6, "impact_level": "Low", "enforcement_priority": "High", "enforcement_score": 64.8, "radius_m": 624.9242211163217}, {"rank": 102, "cluster_id": 10, "lat": 12.875975647499999, "lng": 77.6709775275, "location": "Amrutha College Road, Rayasandra Circle, Rayasandra, Bengaluru, Karnataka. Pin-560100 (India)", "police_station": "Electronic City", "violation_count": 80, "congestion_score": 26.5, "impact_level": "Low", "enforcement_priority": "High", "enforcement_score": 64.7, "radius_m": 391.95792750008883}, {"rank": 103, "cluster_id": 119, "lat": 12.924400295858563, "lng": 77.6281274708073, "location": "Sarjapur Marathahalli Road, Krupanidhi College Junction, Koramangala, Bengaluru, Karnataka. Pin-5600", "police_station": "Adugodi", "violation_count": 15, "congestion_score": 29.1, "impact_level": "Low", "enforcement_priority": "High", "enforcement_score": 64.6, "radius_m": 248.29544030042072}, {"rank": 104, "cluster_id": 38, "lat": 12.85606866590256, "lng": 77.58887562227316, "location": "Bannerghatta Main Road, Anjanapura Upavalaya, Gottigere, Bengaluru, Karnataka. Pin-560083 (India)", "police_station": "Hulimavu", "violation_count": 99, "congestion_score": 25.6, "impact_level": "Low", "enforcement_priority": "High", "enforcement_score": 64.3, "radius_m": 717.2782151841091}, {"rank": 105, "cluster_id": 11, "lat": 13.010748728767124, "lng": 77.50631878356162, "location": "Rajgopal Nagar Main Road, M Ramaiah Layout, Stage 2, Peenya, Bengaluru, Karnataka. Pin-560058 (India", "police_station": "Peenya", "violation_count": 73, "congestion_score": 26.0, "impact_level": "Low", "enforcement_priority": "High", "enforcement_score": 64.0, "radius_m": 371.8753931507255}, {"rank": 106, "cluster_id": 102, "lat": 12.887384870235461, "lng": 77.7384770025872, "location": "Sarjapura Main Road, Muthanallur Cross, Dommasandra Anekal Taluka, Bengaluru, Karnataka. Pin-562125 ", "police_station": "No Police Station", "violation_count": 20, "congestion_score": 26.3, "impact_level": "Low", "enforcement_priority": "High", "enforcement_score": 64.0, "radius_m": 180.00487341032212}, {"rank": 107, "cluster_id": 53, "lat": 13.032536278947367, "lng": 77.63693814210525, "location": "Hennur Main Road, Maruthi Layout, Block 4 Stage 1, HBR Layout, Bengaluru, Karnataka. Pin-560043 (Ind", "police_station": "Hennuru", "violation_count": 19, "congestion_score": 28.2, "impact_level": "Low", "enforcement_priority": "High", "enforcement_score": 63.9, "radius_m": 250.38503684221956}, {"rank": 108, "cluster_id": 37, "lat": 12.99378292, "lng": 77.757326584, "location": "Whitefield Main Road, Gopal Krishna Nagar, Kadugodi Plantation, Bengaluru, Karnataka. Pin-560067 (In", "police_station": "Mahadevapura", "violation_count": 25, "congestion_score": 27.9, "impact_level": "Low", "enforcement_priority": "High", "enforcement_score": 63.8, "radius_m": 320.90321999998395}, {"rank": 109, "cluster_id": 86, "lat": 13.003424160674156, "lng": 77.6623830752809, "location": "2nd Main Road, Kasturi Nagar, Banaswadi, Bengaluru, Karnataka. Pin-560043 (India)", "police_station": "Banaswadi", "violation_count": 89, "congestion_score": 23.7, "impact_level": "Low", "enforcement_priority": "High", "enforcement_score": 63.5, "radius_m": 498.5743348312255}, {"rank": 110, "cluster_id": 109, "lat": 13.043987928571429, "lng": 77.55522508333333, "location": "Outer Ring Road, Sharadamba Nagar, Muthyala Nagar, Bengaluru, Karnataka. Pin-560054 (India)", "police_station": "Jalahalli", "violation_count": 42, "congestion_score": 26.8, "impact_level": "Low", "enforcement_priority": "High", "enforcement_score": 63.4, "radius_m": 398.60608333242453}, {"rank": 111, "cluster_id": 100, "lat": 12.983466883333332, "lng": 77.76834422222223, "location": "Channasandra Main Road, Thimma Reddy Colony, Channasandra, Bengaluru, Karnataka. Pin-560067 (India)", "police_station": "Mahadevapura", "violation_count": 18, "congestion_score": 26.9, "impact_level": "Low", "enforcement_priority": "High", "enforcement_score": 63.3, "radius_m": 288.2161111114101}, {"rank": 112, "cluster_id": 103, "lat": 12.969773949999999, "lng": 77.49756891666665, "location": "60 Feet Road, Sri Maregowda Circle, Gidadakonenahalli, Bengaluru, Karnataka. Pin-560091 (India)", "police_station": "Jnanabharathi", "violation_count": 18, "congestion_score": 27.2, "impact_level": "Low", "enforcement_priority": "High", "enforcement_score": 63.0, "radius_m": 286.1170833345028}, {"rank": 113, "cluster_id": 96, "lat": 13.041945052272728, "lng": 77.61349398409091, "location": "MBT Road, Govind Pura, Nagavara, Bengaluru, Karnataka. Pin-560045 (India)", "police_station": "K.G. Halli", "violation_count": 44, "congestion_score": 26.0, "impact_level": "Low", "enforcement_priority": "High", "enforcement_score": 62.8, "radius_m": 209.574647727635}, {"rank": 114, "cluster_id": 105, "lat": 12.891824736842105, "lng": 77.58144459473685, "location": "Kothanur Main Road, JP Nagar Phase 7, Bengaluru, Karnataka. Pin-560078 (India)", "police_station": "J.P. Nagar", "violation_count": 19, "congestion_score": 26.1, "impact_level": "Low", "enforcement_priority": "High", "enforcement_score": 62.7, "radius_m": 163.53105263206658}, {"rank": 115, "cluster_id": 110, "lat": 12.89804945, "lng": 77.60645688888889, "location": "Devara Chikkanahalli Main Road, Someshwara Layout, Bilekahalli, Bengaluru, Karnataka. Pin-560076 (In", "police_station": "Mico Layout", "violation_count": 18, "congestion_score": 24.9, "impact_level": "Low", "enforcement_priority": "High", "enforcement_score": 62.2, "radius_m": 278.24925000002486}, {"rank": 116, "cluster_id": 123, "lat": 12.9835753, "lng": 77.67983541515152, "location": "Kaggadaspura Main Road, Jagadaapura, Kaggadasapura, Bengaluru, Karnataka. Pin-560093 (India)", "police_station": "Banaswadi", "violation_count": 33, "congestion_score": 25.9, "impact_level": "Low", "enforcement_priority": "High", "enforcement_score": 62.2, "radius_m": 175.18019999989855}, {"rank": 117, "cluster_id": 42, "lat": 13.057986376470588, "lng": 77.46971412745098, "location": "Mumbai Bengaluru Highway, Bynapalya, Madanaiyakanahalli, Bengaluru, Karnataka. Pin-562162 (India)", "police_station": "No Police Station", "violation_count": 102, "congestion_score": 23.0, "impact_level": "Low", "enforcement_priority": "High", "enforcement_score": 61.7, "radius_m": 663.6691666657413}, {"rank": 118, "cluster_id": 81, "lat": 13.021308930371717, "lng": 77.6569367272494, "location": "Horamavu Main Road, Sycon Cressida, Ashirwad Colony, Horamavu, Bengaluru, Karnataka. Pin-560043 (Ind", "police_station": "Hennuru", "violation_count": 98, "congestion_score": 23.1, "impact_level": "Low", "enforcement_priority": "High", "enforcement_score": 61.5, "radius_m": 656.3396287395022}, {"rank": 119, "cluster_id": 75, "lat": 13.014524986666666, "lng": 77.57426195333332, "location": "Sir CV Raman Road, Sadashivanagar Junction, Armane Nagar, Bengaluru, Karnataka. Pin-560094 (India)", "police_station": "Sadashivanagar", "violation_count": 15, "congestion_score": 25.9, "impact_level": "Low", "enforcement_priority": "High", "enforcement_score": 61.5, "radius_m": 164.89603333219804}, {"rank": 120, "cluster_id": 130, "lat": 12.917984225000001, "lng": 77.56454016250001, "location": "Dr Rajkumar Puniya Bhoomi Road, ACS Meghana Shalini, Kadarenahalli, Banashankari Stage 2, Bengaluru,", "police_station": "Banashankari", "violation_count": 16, "congestion_score": 23.9, "impact_level": "Low", "enforcement_priority": "High", "enforcement_score": 61.3, "radius_m": 161.3246874991603}, {"rank": 121, "cluster_id": 113, "lat": 12.872741714285713, "lng": 77.56621185238097, "location": "Amruth Nagar Main Road, Tippu Sultan Circle, Avalahalli, Bengaluru, Karnataka. Pin-560062 (India)", "police_station": "Thalagattapura", "violation_count": 21, "congestion_score": 25.2, "impact_level": "Low", "enforcement_priority": "High", "enforcement_score": 61.2, "radius_m": 159.35395238251715}, {"rank": 122, "cluster_id": 63, "lat": 13.108884300634022, "lng": 77.60331470753749, "location": "Bellary Road, Krishnaja Avenue, Maruthi Nagar, Palanahalli, Bengaluru, Karnataka. Pin-560064 (India)", "police_station": "Yelahanka", "violation_count": 68, "congestion_score": 21.9, "impact_level": "Low", "enforcement_priority": "High", "enforcement_score": 60.6, "radius_m": 733.4435296235569}, {"rank": 123, "cluster_id": 112, "lat": 13.000521599182392, "lng": 77.53489366701223, "location": "Pipeline Road, Kurubarahalli Circle, Kurubarahalli, Bengaluru, Karnataka. Pin-560086 (India)", "police_station": "Vijayanagara", "violation_count": 18, "congestion_score": 24.9, "impact_level": "Low", "enforcement_priority": "High", "enforcement_score": 60.5, "radius_m": 198.63369603974945}, {"rank": 124, "cluster_id": 66, "lat": 12.94004631020408, "lng": 77.49349123061225, "location": "Kengeri Main Road, Rajarajeshwari Layout, Nagadevanahalli, Bengaluru, Karnataka. Pin-560056 (India)", "police_station": "Jnanabharathi", "violation_count": 98, "congestion_score": 21.7, "impact_level": "Low", "enforcement_priority": "High", "enforcement_score": 60.5, "radius_m": 639.6585673471922}, {"rank": 125, "cluster_id": 124, "lat": 13.071755327777778, "lng": 77.50350499444444, "location": "Hesaraghatta Main Road, Janapriya Nivas, Chikkasandra, Bengaluru, Karnataka. Pin-560090 (India)", "police_station": "Chikkabanavara", "violation_count": 18, "congestion_score": 24.8, "impact_level": "Low", "enforcement_priority": "High", "enforcement_score": 60.4, "radius_m": 272.730083333359}, {"rank": 126, "cluster_id": 106, "lat": 13.09793058372093, "lng": 77.56693094418604, "location": "Yelahanka Road, Sai Ram Layout, Yelahanka, Bengaluru, Karnataka. Pin-560064 (India)", "police_station": "Yelahanka", "violation_count": 43, "congestion_score": 23.9, "impact_level": "Low", "enforcement_priority": "High", "enforcement_score": 60.4, "radius_m": 318.76225581363826}, {"rank": 127, "cluster_id": 137, "lat": 13.020839115151515, "lng": 77.61351105757575, "location": "Dr Ambedkar Medical College Road, Sowkar Nagar, Kadugondanahalli, Bengaluru, Karnataka. Pin-560045 (", "police_station": "K.G. Halli", "violation_count": 33, "congestion_score": 23.4, "impact_level": "Low", "enforcement_priority": "High", "enforcement_score": 60.3, "radius_m": 249.8482181817625}, {"rank": 128, "cluster_id": 48, "lat": 13.068186430000003, "lng": 77.44882042, "location": "Mumbai Bengaluru Highway, Alur Village, Bengaluru, Karnataka. Pin-562162 (India)", "police_station": "No Police Station", "violation_count": 20, "congestion_score": 24.3, "impact_level": "Low", "enforcement_priority": "High", "enforcement_score": 60.3, "radius_m": 316.6522000000782}, {"rank": 129, "cluster_id": 28, "lat": 13.022622391666667, "lng": 77.601330075, "location": "Adi Kabir Ashram Main Road, Mariappa Garden, RT Nagar, Bengaluru, Karnataka. Pin-560032 (India)", "police_station": "R.T. Nagar", "violation_count": 24, "congestion_score": 24.0, "impact_level": "Low", "enforcement_priority": "High", "enforcement_score": 59.9, "radius_m": 180.57612499923437}, {"rank": 130, "cluster_id": 30, "lat": 13.004580763076923, "lng": 77.71158164923078, "location": "Basavanapura Road, KR Puram, Bengaluru, Karnataka. Pin-560036 (India)", "police_station": "K.R. Pura", "violation_count": 65, "congestion_score": 22.3, "impact_level": "Low", "enforcement_priority": "High", "enforcement_score": 59.6, "radius_m": 502.54131538316926}, {"rank": 131, "cluster_id": 43, "lat": 12.999582274242423, "lng": 77.48876855151515, "location": "Andhrahalli Main Road, Soundarya Layout, Andhrahalli, Bengaluru, Karnataka. Pin-560091 (India)", "police_station": "Kamakshipalya", "violation_count": 66, "congestion_score": 22.1, "impact_level": "Low", "enforcement_priority": "High", "enforcement_score": 59.6, "radius_m": 501.57855909111504}, {"rank": 132, "cluster_id": 141, "lat": 12.882122093749999, "lng": 77.6097102375, "location": "Vishveswaraiah Road, Rashi Pride, Avani Shringeri Nagar, Devarachikannahalli, Bengaluru, Karnataka. ", "police_station": "Hulimavu", "violation_count": 16, "congestion_score": 23.8, "impact_level": "Low", "enforcement_priority": "High", "enforcement_score": 59.4, "radius_m": 321.5108062498775}, {"rank": 133, "cluster_id": 69, "lat": 13.079261938775511, "lng": 77.55914790408164, "location": "Vidyaranyapura Main Road, HMT Layout, Vidyaranyapura, Bengaluru, Karnataka. Pin-560097 (India)", "police_station": "Yelahanka", "violation_count": 49, "congestion_score": 21.6, "impact_level": "Low", "enforcement_priority": "High", "enforcement_score": 59.3, "radius_m": 606.6082040816739}, {"rank": 134, "cluster_id": 83, "lat": 13.010511938069861, "lng": 77.65948298444728, "location": "5th Main Road, B Channasandra, Banaswadi, Bengaluru, Karnataka. Pin-560043 (India)", "police_station": "Banaswadi", "violation_count": 43, "congestion_score": 22.6, "impact_level": "Low", "enforcement_priority": "High", "enforcement_score": 59.3, "radius_m": 393.25767424545074}, {"rank": 135, "cluster_id": 126, "lat": 12.939061247826087, "lng": 77.6323201173913, "location": "Ejipura Main Road, VGS Layout, Ejipura, Bengaluru, Karnataka. Pin-560047 (India)", "police_station": "Ashok Nagar", "violation_count": 23, "congestion_score": 22.8, "impact_level": "Low", "enforcement_priority": "High", "enforcement_score": 59.2, "radius_m": 287.16279130437704}, {"rank": 136, "cluster_id": 46, "lat": 12.951589942424242, "lng": 77.62329063131313, "location": "Neelasandra Road, Samastha Nagar, Koramangala, Bengaluru, Karnataka. Pin-560047 (India)", "police_station": "Ashok Nagar", "violation_count": 99, "congestion_score": 20.6, "impact_level": "Low", "enforcement_priority": "High", "enforcement_score": 59.1, "radius_m": 760.3436090909206}, {"rank": 137, "cluster_id": 101, "lat": 12.968659919999999, "lng": 77.55941170999999, "location": "1st Main Road, New Binny Layout, Binnypete, Bengaluru, Karnataka. Pin-560023 (India)", "police_station": "Magadi Road", "violation_count": 20, "congestion_score": 23.2, "impact_level": "Low", "enforcement_priority": "High", "enforcement_score": 58.9, "radius_m": 213.37751999983112}, {"rank": 138, "cluster_id": 121, "lat": 12.840502556250001, "lng": 77.6634438625, "location": "2nd Cross Road, KSSIDC Complex, Phase 1, Electronic City, Bengaluru, Karnataka. Pin-560100 (India)", "police_station": "Electronic City", "violation_count": 16, "congestion_score": 22.7, "impact_level": "Low", "enforcement_priority": "High", "enforcement_score": 58.7, "radius_m": 166.3716562497388}, {"rank": 139, "cluster_id": 138, "lat": 12.887441251355401, "lng": 77.64947620440682, "location": "2nd Main Road, Old Prabhu Layout, Kudlu, Bengaluru, Karnataka. Pin-560068 (India)", "police_station": "Electronic City", "violation_count": 35, "congestion_score": 21.2, "impact_level": "Low", "enforcement_priority": "High", "enforcement_score": 58.4, "radius_m": 314.7843917097717}, {"rank": 140, "cluster_id": 127, "lat": 12.935375541433189, "lng": 77.5617431921572, "location": "KP Purnachandra Tejaswi Road, Ashok Nagar, Banashankari Stage 1, Bengaluru, Karnataka. Pin-560050 (I", "police_station": "Basavanagudi", "violation_count": 17, "congestion_score": 22.7, "impact_level": "Low", "enforcement_priority": "High", "enforcement_score": 58.3, "radius_m": 233.21750091607996}, {"rank": 141, "cluster_id": 144, "lat": 12.947894241176472, "lng": 77.48773292941176, "location": "1st Main Road, KV Orchids, Stage 2, Jnana Bharathi, Bengaluru, Karnataka. Pin-560056 (India)", "police_station": "Jnanabharathi", "violation_count": 17, "congestion_score": 19.9, "impact_level": "Low", "enforcement_priority": "High", "enforcement_score": 57.4, "radius_m": 234.52732941162856}, {"rank": 142, "cluster_id": 108, "lat": 13.01912506956522, "lng": 77.61873314347827, "location": "Vinoba Nagar Main Road, Mysore Income Tax Layout, Kadugondanahalli, Bengaluru, Karnataka. Pin-560045", "police_station": "K.G. Halli", "violation_count": 23, "congestion_score": 21.4, "impact_level": "Low", "enforcement_priority": "High", "enforcement_score": 57.2, "radius_m": 205.04692173937934}, {"rank": 143, "cluster_id": 136, "lat": 12.980421652499999, "lng": 77.7244746325, "location": "ITPL Main Road, SJR I Park, EPIP Zone, Whitefield, Bengaluru, Karnataka. Pin-560066 (India)", "police_station": "Mahadevapura", "violation_count": 40, "congestion_score": 19.7, "impact_level": "Low", "enforcement_priority": "High", "enforcement_score": 56.9, "radius_m": 469.73826250095385}, {"rank": 144, "cluster_id": 76, "lat": 13.024715220000003, "lng": 77.51106495777778, "location": "3rd Main Road, Chakkasandra, Peenya, Bengaluru, Karnataka. Pin-560058 (India)", "police_station": "Peenya", "violation_count": 15, "congestion_score": 21.1, "impact_level": "Low", "enforcement_priority": "High", "enforcement_score": 56.6, "radius_m": 224.95482000025646}, {"rank": 145, "cluster_id": 118, "lat": 12.929400370000002, "lng": 77.56749911, "location": "Gayatri Bhavan Road, Byrappa Block, Thyagarajanagar, Bengaluru, Karnataka. Pin-560070 (India)", "police_station": "Banashankari", "violation_count": 20, "congestion_score": 19.2, "impact_level": "Low", "enforcement_priority": "Medium", "enforcement_score": 54.9, "radius_m": 300.5180700001464}]